header: 
  seq: 484
  stamp: 
    secs: 1736862980
    nsecs: 807119939
  frame_id: ''
name: 
  - arm_joint_1
  - arm_joint_2
  - arm_joint_3
  - arm_joint_4
  - arm_joint_5
  - gripper_finger_joint_l
  - gripper_finger_joint_r
position: [0.708942999999999, 1.9211795000000207, 0.6701845000000086, 1.6538245000000256, 4.232122500000033, 0.009481049999999717, 0.007987250000000175]
velocity: []
effort: []
---
header: 
  seq: 485
  stamp: 
    secs: 1736862980
    nsecs: 817099660
  frame_id: ''
name: 
  - arm_joint_1
  - arm_joint_2
  - arm_joint_3
  - arm_joint_4
  - arm_joint_5
  - gripper_finger_joint_l
  - gripper_finger_joint_r
position: [0.709806799999999, 1.9219242000000207, 0.6787622000000086, 1.6516262000000255, 4.234931000000033, 0.009479979999999716, 0.007983100000000175]
velocity: []
effort: []
---
header: 
  seq: 486
  stamp: 
    secs: 1736862980
    nsecs: 827044600
  frame_id: ''
name: 
  - arm_joint_1
  - arm_joint_2
  - arm_joint_3
  - arm_joint_4
  - arm_joint_5
  - gripper_finger_joint_l
  - gripper_finger_joint_r
position: [0.7106705999999989, 1.9226689000000208, 0.6873399000000087, 1.6494279000000254, 4.237739500000034, 0.009478909999999716, 0.007978950000000175]
velocity: []
effort: []
---
header: 
  seq: 487
  stamp: 
    secs: 1736862980
    nsecs: 837001856
  frame_id: ''
name: 
  - arm_joint_1
  - arm_joint_2
  - arm_joint_3
  - arm_joint_4
  - arm_joint_5
  - gripper_finger_joint_l
  - gripper_finger_joint_r
position: [0.7115343999999989, 1.9234136000000208, 0.6959176000000087, 1.6472296000000253, 4.240548000000034, 0.009477839999999715, 0.007974800000000176]
velocity: []
effort: []
---
header: 
  seq: 488
  stamp: 
    secs: 1736862980
    nsecs: 847029363
  frame_id: ''
name: 
  - arm_joint_1
  - arm_joint_2
  - arm_joint_3
  - arm_joint_4
  - arm_joint_5
  - gripper_finger_joint_l
  - gripper_finger_joint_r
position: [0.7123981999999989, 1.9241583000000209, 0.7044953000000087, 1.6450313000000252, 4.243356500000035, 0.009476769999999714, 0.007970650000000176]
velocity: []
effort: []
---
header: 
  seq: 489
  stamp: 
    secs: 1736862980
    nsecs: 857016687
  frame_id: ''
name: 
  - arm_joint_1
  - arm_joint_2
  - arm_joint_3
  - arm_joint_4
  - arm_joint_5
  - gripper_finger_joint_l
  - gripper_finger_joint_r
position: [0.7132619999999988, 1.924903000000021, 0.7130730000000087, 1.642833000000025, 4.246165000000035, 0.009475699999999714, 0.007966500000000177]
velocity: []
effort: []
---
header: 
  seq: 490
  stamp: 
    secs: 1736862980
    nsecs: 867023472
  frame_id: ''
name: 
  - arm_joint_1
  - arm_joint_2
  - arm_joint_3
  - arm_joint_4
  - arm_joint_5
  - gripper_finger_joint_l
  - gripper_finger_joint_r
position: [0.7141257999999988, 1.925647700000021, 0.7216507000000087, 1.640634700000025, 4.2489735000000355, 0.009474629999999713, 0.007962350000000177]
velocity: []
effort: []
---
header: 
  seq: 491
  stamp: 
    secs: 1736862980
    nsecs: 876987989
  frame_id: ''
name: 
  - arm_joint_1
  - arm_joint_2
  - arm_joint_3
  - arm_joint_4
  - arm_joint_5
  - gripper_finger_joint_l
  - gripper_finger_joint_r
position: [0.7149895999999988, 1.926392400000021, 0.7302284000000088, 1.6384364000000249, 4.251782000000036, 0.009473559999999713, 0.007958200000000177]
velocity: []
effort: []
---
header: 
  seq: 492
  stamp: 
    secs: 1736862980
    nsecs: 887033114
  frame_id: ''
name: 
  - arm_joint_1
  - arm_joint_2
  - arm_joint_3
  - arm_joint_4
  - arm_joint_5
  - gripper_finger_joint_l
  - gripper_finger_joint_r
position: [0.7158533999999988, 1.927137100000021, 0.7388061000000088, 1.6362381000000248, 4.254590500000036, 0.009472489999999712, 0.007954050000000178]
velocity: []
effort: []
---
header: 
  seq: 493
  stamp: 
    secs: 1736862980
    nsecs: 897018231
  frame_id: ''
name: 
  - arm_joint_1
  - arm_joint_2
  - arm_joint_3
  - arm_joint_4
  - arm_joint_5
  - gripper_finger_joint_l
  - gripper_finger_joint_r
position: [0.7167171999999987, 1.927881800000021, 0.7473838000000088, 1.6340398000000247, 4.257399000000037, 0.009471419999999712, 0.007949900000000178]
velocity: []
effort: []
---
header: 
  seq: 494
  stamp: 
    secs: 1736862980
    nsecs: 906971869
  frame_id: ''
name: 
  - arm_joint_1
  - arm_joint_2
  - arm_joint_3
  - arm_joint_4
  - arm_joint_5
  - gripper_finger_joint_l
  - gripper_finger_joint_r
position: [0.7175809999999987, 1.9286265000000211, 0.7559615000000088, 1.6318415000000246, 4.260207500000037, 0.009470349999999711, 0.007945750000000178]
velocity: []
effort: []
---
header: 
  seq: 495
  stamp: 
    secs: 1736862980
    nsecs: 916969404
  frame_id: ''
name: 
  - arm_joint_1
  - arm_joint_2
  - arm_joint_3
  - arm_joint_4
  - arm_joint_5
  - gripper_finger_joint_l
  - gripper_finger_joint_r
position: [0.7184447999999987, 1.9293712000000212, 0.7645392000000089, 1.6296432000000245, 4.263016000000038, 0.00946927999999971, 0.007941600000000179]
velocity: []
effort: []
---
header: 
  seq: 496
  stamp: 
    secs: 1736862980
    nsecs: 926979366
  frame_id: ''
name: 
  - arm_joint_1
  - arm_joint_2
  - arm_joint_3
  - arm_joint_4
  - arm_joint_5
  - gripper_finger_joint_l
  - gripper_finger_joint_r
position: [0.7193085999999986, 1.9301159000000212, 0.7731169000000089, 1.6274449000000244, 4.265824500000038, 0.00946820999999971, 0.007937450000000179]
velocity: []
effort: []
---
header: 
  seq: 497
  stamp: 
    secs: 1736862980
    nsecs: 937023231
  frame_id: ''
name: 
  - arm_joint_1
  - arm_joint_2
  - arm_joint_3
  - arm_joint_4
  - arm_joint_5
  - gripper_finger_joint_l
  - gripper_finger_joint_r
position: [0.7201723999999986, 1.9308606000000212, 0.7816946000000089, 1.6252466000000243, 4.2686330000000385, 0.00946713999999971, 0.00793330000000018]
velocity: []
effort: []
---
header: 
  seq: 498
  stamp: 
    secs: 1736862980
    nsecs: 947008813
  frame_id: ''
name: 
  - arm_joint_1
  - arm_joint_2
  - arm_joint_3
  - arm_joint_4
  - arm_joint_5
  - gripper_finger_joint_l
  - gripper_finger_joint_r
position: [0.7210361999999986, 1.9316053000000213, 0.7902723000000089, 1.6230483000000242, 4.271441500000039, 0.009466069999999709, 0.00792915000000018]
velocity: []
effort: []
---
header: 
  seq: 499
  stamp: 
    secs: 1736862980
    nsecs: 957008796
  frame_id: ''
name: 
  - arm_joint_1
  - arm_joint_2
  - arm_joint_3
  - arm_joint_4
  - arm_joint_5
  - gripper_finger_joint_l
  - gripper_finger_joint_r
position: [0.7218999999999985, 1.9323500000000213, 0.7988500000000089, 1.620850000000024, 4.274250000000039, 0.009464999999999708, 0.00792500000000018]
velocity: []
effort: []
---
header: 
  seq: 500
  stamp: 
    secs: 1736862980
    nsecs: 967046916
  frame_id: ''
name: 
  - arm_joint_1
  - arm_joint_2
  - arm_joint_3
  - arm_joint_4
  - arm_joint_5
  - gripper_finger_joint_l
  - gripper_finger_joint_r
position: [0.7227637999999985, 1.9330947000000214, 0.807427700000009, 1.618651700000024, 4.27705850000004, 0.009463929999999707, 0.00792085000000018]
velocity: []
effort: []
---
header: 
  seq: 501
  stamp: 
    secs: 1736862980
    nsecs: 976976003
  frame_id: ''
name: 
  - arm_joint_1
  - arm_joint_2
  - arm_joint_3
  - arm_joint_4
  - arm_joint_5
  - gripper_finger_joint_l
  - gripper_finger_joint_r
position: [0.7236275999999985, 1.9338394000000214, 0.816005400000009, 1.616453400000024, 4.27986700000004, 0.009462859999999707, 0.007916700000000181]
velocity: []
effort: []
---
header: 
  seq: 502
  stamp: 
    secs: 1736862980
    nsecs: 987037432
  frame_id: ''
name: 
  - arm_joint_1
  - arm_joint_2
  - arm_joint_3
  - arm_joint_4
  - arm_joint_5
  - gripper_finger_joint_l
  - gripper_finger_joint_r
position: [0.7244913999999985, 1.9345841000000215, 0.824583100000009, 1.6142551000000238, 4.282675500000041, 0.009461789999999706, 0.007912550000000181]
velocity: []
effort: []
---
header: 
  seq: 503
  stamp: 
    secs: 1736862980
    nsecs: 997089883
  frame_id: ''
name: 
  - arm_joint_1
  - arm_joint_2
  - arm_joint_3
  - arm_joint_4
  - arm_joint_5
  - gripper_finger_joint_l
  - gripper_finger_joint_r
position: [0.7253551999999984, 1.9353288000000215, 0.833160800000009, 1.6120568000000237, 4.285484000000041, 0.009460719999999706, 0.007908400000000182]
velocity: []
effort: []
---
header: 
  seq: 504
  stamp: 
    secs: 1736862981
    nsecs:   7057156
  frame_id: ''
name: 
  - arm_joint_1
  - arm_joint_2
  - arm_joint_3
  - arm_joint_4
  - arm_joint_5
  - gripper_finger_joint_l
  - gripper_finger_joint_r
position: [0.7262189999999984, 1.9360735000000215, 0.841738500000009, 1.6098585000000236, 4.288292500000042, 0.009459649999999705, 0.007904250000000182]
velocity: []
effort: []
---
header: 
  seq: 505
  stamp: 
    secs: 1736862981
    nsecs:  17033912
  frame_id: ''
name: 
  - arm_joint_1
  - arm_joint_2
  - arm_joint_3
  - arm_joint_4
  - arm_joint_5
  - gripper_finger_joint_l
  - gripper_finger_joint_r
position: [0.7270827999999984, 1.9368182000000216, 0.8503162000000091, 1.6076602000000235, 4.291101000000042, 0.009458579999999705, 0.007900100000000182]
velocity: []
effort: []
---
header: 
  seq: 506
  stamp: 
    secs: 1736862981
    nsecs:  27039636
  frame_id: ''
name: 
  - arm_joint_1
  - arm_joint_2
  - arm_joint_3
  - arm_joint_4
  - arm_joint_5
  - gripper_finger_joint_l
  - gripper_finger_joint_r
position: [0.7279465999999983, 1.9375629000000216, 0.8588939000000091, 1.6054619000000234, 4.2939095000000425, 0.009457509999999704, 0.007895950000000183]
velocity: []
effort: []
---
header: 
  seq: 507
  stamp: 
    secs: 1736862981
    nsecs:  37007340
  frame_id: ''
name: 
  - arm_joint_1
  - arm_joint_2
  - arm_joint_3
  - arm_joint_4
  - arm_joint_5
  - gripper_finger_joint_l
  - gripper_finger_joint_r
position: [0.7288103999999983, 1.9383076000000217, 0.8674716000000091, 1.6032636000000233, 4.296718000000043, 0.009456439999999703, 0.007891800000000183]
velocity: []
effort: []
---
header: 
  seq: 508
  stamp: 
    secs: 1736862981
    nsecs:  47094835
  frame_id: ''
name: 
  - arm_joint_1
  - arm_joint_2
  - arm_joint_3
  - arm_joint_4
  - arm_joint_5
  - gripper_finger_joint_l
  - gripper_finger_joint_r
position: [0.7296741999999983, 1.9390523000000217, 0.8760493000000091, 1.6010653000000232, 4.299526500000043, 0.009455369999999703, 0.007887650000000183]
velocity: []
effort: []
---
header: 
  seq: 509
  stamp: 
    secs: 1736862981
    nsecs:  57023076
  frame_id: ''
name: 
  - arm_joint_1
  - arm_joint_2
  - arm_joint_3
  - arm_joint_4
  - arm_joint_5
  - gripper_finger_joint_l
  - gripper_finger_joint_r
position: [0.7305379999999982, 1.9397970000000218, 0.8846270000000092, 1.5988670000000231, 4.302335000000044, 0.009454299999999702, 0.007883500000000184]
velocity: []
effort: []
---
header: 
  seq: 510
  stamp: 
    secs: 1736862981
    nsecs:  67090052
  frame_id: ''
name: 
  - arm_joint_1
  - arm_joint_2
  - arm_joint_3
  - arm_joint_4
  - arm_joint_5
  - gripper_finger_joint_l
  - gripper_finger_joint_r
position: [0.7314017999999982, 1.9405417000000218, 0.8932047000000092, 1.596668700000023, 4.305143500000044, 0.009453229999999702, 0.007879350000000184]
velocity: []
effort: []
---
header: 
  seq: 511
  stamp: 
    secs: 1736862981
    nsecs:  77010418
  frame_id: ''
name: 
  - arm_joint_1
  - arm_joint_2
  - arm_joint_3
  - arm_joint_4
  - arm_joint_5
  - gripper_finger_joint_l
  - gripper_finger_joint_r
position: [0.7322655999999982, 1.9412864000000218, 0.9017824000000092, 1.594470400000023, 4.307952000000045, 0.009452159999999701, 0.007875200000000184]
velocity: []
effort: []
---
header: 
  seq: 512
  stamp: 
    secs: 1736862981
    nsecs:  86976132
  frame_id: ''
name: 
  - arm_joint_1
  - arm_joint_2
  - arm_joint_3
  - arm_joint_4
  - arm_joint_5
  - gripper_finger_joint_l
  - gripper_finger_joint_r
position: [0.7331293999999982, 1.9420311000000219, 0.9103601000000092, 1.5922721000000228, 4.310760500000045, 0.0094510899999997, 0.007871050000000185]
velocity: []
effort: []
---
header: 
  seq: 513
  stamp: 
    secs: 1736862981
    nsecs:  97105859
  frame_id: ''
name: 
  - arm_joint_1
  - arm_joint_2
  - arm_joint_3
  - arm_joint_4
  - arm_joint_5
  - gripper_finger_joint_l
  - gripper_finger_joint_r
position: [0.7339931999999981, 1.942775800000022, 0.9189378000000092, 1.5900738000000227, 4.3135690000000455, 0.0094500199999997, 0.007866900000000185]
velocity: []
effort: []
---
header: 
  seq: 514
  stamp: 
    secs: 1736862981
    nsecs: 107021048
  frame_id: ''
name: 
  - arm_joint_1
  - arm_joint_2
  - arm_joint_3
  - arm_joint_4
  - arm_joint_5
  - gripper_finger_joint_l
  - gripper_finger_joint_r
position: [0.7348569999999981, 1.943520500000022, 0.9275155000000093, 1.5878755000000226, 4.316377500000046, 0.0094489499999997, 0.007862750000000186]
velocity: []
effort: []
---
header: 
  seq: 515
  stamp: 
    secs: 1736862981
    nsecs: 117009030
  frame_id: ''
name: 
  - arm_joint_1
  - arm_joint_2
  - arm_joint_3
  - arm_joint_4
  - arm_joint_5
  - gripper_finger_joint_l
  - gripper_finger_joint_r
position: [0.7357207999999981, 1.944265200000022, 0.9360932000000093, 1.5856772000000225, 4.319186000000046, 0.009447879999999699, 0.007858600000000186]
velocity: []
effort: []
---
header: 
  seq: 516
  stamp: 
    secs: 1736862981
    nsecs: 127083102
  frame_id: ''
name: 
  - arm_joint_1
  - arm_joint_2
  - arm_joint_3
  - arm_joint_4
  - arm_joint_5
  - gripper_finger_joint_l
  - gripper_finger_joint_r
position: [0.736584599999998, 1.945009900000022, 0.9446709000000093, 1.5834789000000224, 4.321994500000047, 0.009446809999999698, 0.007854450000000186]
velocity: []
effort: []
---
header: 
  seq: 517
  stamp: 
    secs: 1736862981
    nsecs: 137099304
  frame_id: ''
name: 
  - arm_joint_1
  - arm_joint_2
  - arm_joint_3
  - arm_joint_4
  - arm_joint_5
  - gripper_finger_joint_l
  - gripper_finger_joint_r
position: [0.737448399999998, 1.945754600000022, 0.9532486000000093, 1.5812806000000224, 4.324803000000047, 0.009445739999999698, 0.007850300000000187]
velocity: []
effort: []
---
header: 
  seq: 518
  stamp: 
    secs: 1736862981
    nsecs: 147052298
  frame_id: ''
name: 
  - arm_joint_1
  - arm_joint_2
  - arm_joint_3
  - arm_joint_4
  - arm_joint_5
  - gripper_finger_joint_l
  - gripper_finger_joint_r
position: [0.738312199999998, 1.9464993000000221, 0.9618263000000093, 1.5790823000000223, 4.327611500000048, 0.009444669999999697, 0.007846150000000187]
velocity: []
effort: []
---
header: 
  seq: 519
  stamp: 
    secs: 1736862981
    nsecs: 157057069
  frame_id: ''
name: 
  - arm_joint_1
  - arm_joint_2
  - arm_joint_3
  - arm_joint_4
  - arm_joint_5
  - gripper_finger_joint_l
  - gripper_finger_joint_r
position: [0.739175999999998, 1.9472440000000222, 0.9704040000000094, 1.5768840000000222, 4.330420000000048, 0.009443599999999696, 0.007842000000000187]
velocity: []
effort: []
---
header: 
  seq: 520
  stamp: 
    secs: 1736862981
    nsecs: 167090830
  frame_id: ''
name: 
  - arm_joint_1
  - arm_joint_2
  - arm_joint_3
  - arm_joint_4
  - arm_joint_5
  - gripper_finger_joint_l
  - gripper_finger_joint_r
position: [0.7400397999999979, 1.9479887000000222, 0.9789817000000094, 1.574685700000022, 4.3332285000000486, 0.009442529999999696, 0.007837850000000188]
velocity: []
effort: []
---
header: 
  seq: 521
  stamp: 
    secs: 1736862981
    nsecs: 177045641
  frame_id: ''
name: 
  - arm_joint_1
  - arm_joint_2
  - arm_joint_3
  - arm_joint_4
  - arm_joint_5
  - gripper_finger_joint_l
  - gripper_finger_joint_r
position: [0.7409035999999979, 1.9487334000000223, 0.9875594000000094, 1.572487400000022, 4.336037000000049, 0.009441459999999695, 0.007833700000000188]
velocity: []
effort: []
---
header: 
  seq: 522
  stamp: 
    secs: 1736862981
    nsecs: 187010098
  frame_id: ''
name: 
  - arm_joint_1
  - arm_joint_2
  - arm_joint_3
  - arm_joint_4
  - arm_joint_5
  - gripper_finger_joint_l
  - gripper_finger_joint_r
position: [0.7417673999999979, 1.9494781000000223, 0.9961371000000094, 1.5702891000000219, 4.338845500000049, 0.009440389999999695, 0.007829550000000188]
velocity: []
effort: []
---
header: 
  seq: 523
  stamp: 
    secs: 1736862981
    nsecs: 197015680
  frame_id: ''
name: 
  - arm_joint_1
  - arm_joint_2
  - arm_joint_3
  - arm_joint_4
  - arm_joint_5
  - gripper_finger_joint_l
  - gripper_finger_joint_r
position: [0.7426311999999978, 1.9502228000000223, 1.0047148000000095, 1.5680908000000218, 4.34165400000005, 0.009439319999999694, 0.007825400000000189]
velocity: []
effort: []
---
header: 
  seq: 524
  stamp: 
    secs: 1736862981
    nsecs: 207002005
  frame_id: ''
name: 
  - arm_joint_1
  - arm_joint_2
  - arm_joint_3
  - arm_joint_4
  - arm_joint_5
  - gripper_finger_joint_l
  - gripper_finger_joint_r
position: [0.7434949999999978, 1.9509675000000224, 1.0132925000000095, 1.5658925000000217, 4.34446250000005, 0.009438249999999693, 0.00782125000000019]
velocity: []
effort: []
---
header: 
  seq: 525
  stamp: 
    secs: 1736862981
    nsecs: 216972752
  frame_id: ''
name: 
  - arm_joint_1
  - arm_joint_2
  - arm_joint_3
  - arm_joint_4
  - arm_joint_5
  - gripper_finger_joint_l
  - gripper_finger_joint_r
position: [0.7443587999999978, 1.9517122000000224, 1.0218702000000095, 1.5636942000000216, 4.347271000000051, 0.009437179999999693, 0.00781710000000019]
velocity: []
effort: []
---
header: 
  seq: 526
  stamp: 
    secs: 1736862981
    nsecs: 227173332
  frame_id: ''
name: 
  - arm_joint_1
  - arm_joint_2
  - arm_joint_3
  - arm_joint_4
  - arm_joint_5
  - gripper_finger_joint_l
  - gripper_finger_joint_r
position: [0.7452225999999977, 1.9524569000000225, 1.0304479000000095, 1.5614959000000215, 4.350079500000051, 0.009436109999999692, 0.00781295000000019]
velocity: []
effort: []
---
header: 
  seq: 527
  stamp: 
    secs: 1736862981
    nsecs: 237089400
  frame_id: ''
name: 
  - arm_joint_1
  - arm_joint_2
  - arm_joint_3
  - arm_joint_4
  - arm_joint_5
  - gripper_finger_joint_l
  - gripper_finger_joint_r
position: [0.7460863999999977, 1.9532016000000225, 1.0390256000000095, 1.5592976000000214, 4.352888000000052, 0.009435039999999692, 0.00780880000000019]
velocity: []
effort: []
---
header: 
  seq: 528
  stamp: 
    secs: 1736862981
    nsecs: 247065010
  frame_id: ''
name: 
  - arm_joint_1
  - arm_joint_2
  - arm_joint_3
  - arm_joint_4
  - arm_joint_5
  - gripper_finger_joint_l
  - gripper_finger_joint_r
position: [0.7469501999999977, 1.9539463000000226, 1.0476033000000096, 1.5570993000000213, 4.355696500000052, 0.009433969999999691, 0.007804650000000191]
velocity: []
effort: []
---
header: 
  seq: 529
  stamp: 
    secs: 1736862981
    nsecs: 257007214
  frame_id: ''
name: 
  - arm_joint_1
  - arm_joint_2
  - arm_joint_3
  - arm_joint_4
  - arm_joint_5
  - gripper_finger_joint_l
  - gripper_finger_joint_r
position: [0.7478139999999976, 1.9546910000000226, 1.0561810000000096, 1.5549010000000212, 4.3585050000000525, 0.00943289999999969, 0.007800500000000191]
velocity: []
effort: []
---
header: 
  seq: 530
  stamp: 
    secs: 1736862981
    nsecs: 267059132
  frame_id: ''
name: 
  - arm_joint_1
  - arm_joint_2
  - arm_joint_3
  - arm_joint_4
  - arm_joint_5
  - gripper_finger_joint_l
  - gripper_finger_joint_r
position: [0.7486777999999976, 1.9554357000000226, 1.0647587000000096, 1.552702700000021, 4.361313500000053, 0.00943182999999969, 0.007796350000000191]
velocity: []
effort: []
---
header: 
  seq: 531
  stamp: 
    secs: 1736862981
    nsecs: 277062583
  frame_id: ''
name: 
  - arm_joint_1
  - arm_joint_2
  - arm_joint_3
  - arm_joint_4
  - arm_joint_5
  - gripper_finger_joint_l
  - gripper_finger_joint_r
position: [0.7495415999999976, 1.9561804000000227, 1.0733364000000096, 1.550504400000021, 4.364122000000053, 0.00943075999999969, 0.007792200000000192]
velocity: []
effort: []
---
header: 
  seq: 532
  stamp: 
    secs: 1736862981
    nsecs: 287003262
  frame_id: ''
name: 
  - arm_joint_1
  - arm_joint_2
  - arm_joint_3
  - arm_joint_4
  - arm_joint_5
  - gripper_finger_joint_l
  - gripper_finger_joint_r
position: [0.7504053999999976, 1.9569251000000227, 1.0819141000000096, 1.548306100000021, 4.366930500000054, 0.009429689999999689, 0.007788050000000192]
velocity: []
effort: []
---
header: 
  seq: 533
  stamp: 
    secs: 1736862981
    nsecs: 297019135
  frame_id: ''
name: 
  - arm_joint_1
  - arm_joint_2
  - arm_joint_3
  - arm_joint_4
  - arm_joint_5
  - gripper_finger_joint_l
  - gripper_finger_joint_r
position: [0.7512691999999975, 1.9576698000000228, 1.0904918000000097, 1.5461078000000208, 4.369739000000054, 0.009428619999999688, 0.007783900000000192]
velocity: []
effort: []
---
header: 
  seq: 534
  stamp: 
    secs: 1736862981
    nsecs: 306966228
  frame_id: ''
name: 
  - arm_joint_1
  - arm_joint_2
  - arm_joint_3
  - arm_joint_4
  - arm_joint_5
  - gripper_finger_joint_l
  - gripper_finger_joint_r
position: [0.7521329999999975, 1.9584145000000228, 1.0990695000000097, 1.5439095000000207, 4.372547500000055, 0.009427549999999688, 0.007779750000000193]
velocity: []
effort: []
---
header: 
  seq: 535
  stamp: 
    secs: 1736862981
    nsecs: 317059107
  frame_id: ''
name: 
  - arm_joint_1
  - arm_joint_2
  - arm_joint_3
  - arm_joint_4
  - arm_joint_5
  - gripper_finger_joint_l
  - gripper_finger_joint_r
position: [0.7529967999999975, 1.9591592000000229, 1.1076472000000097, 1.5417112000000206, 4.375356000000055, 0.009426479999999687, 0.007775600000000193]
velocity: []
effort: []
---
header: 
  seq: 536
  stamp: 
    secs: 1736862981
    nsecs: 327044600
  frame_id: ''
name: 
  - arm_joint_1
  - arm_joint_2
  - arm_joint_3
  - arm_joint_4
  - arm_joint_5
  - gripper_finger_joint_l
  - gripper_finger_joint_r
position: [0.7538605999999974, 1.959903900000023, 1.1162249000000097, 1.5395129000000205, 4.3781645000000555, 0.009425409999999686, 0.0077714500000001935]
velocity: []
effort: []
---
header: 
  seq: 537
  stamp: 
    secs: 1736862981
    nsecs: 337097835
  frame_id: ''
name: 
  - arm_joint_1
  - arm_joint_2
  - arm_joint_3
  - arm_joint_4
  - arm_joint_5
  - gripper_finger_joint_l
  - gripper_finger_joint_r
position: [0.7547243999999974, 1.960648600000023, 1.1248026000000098, 1.5373146000000204, 4.380973000000056, 0.009424339999999686, 0.007767300000000194]
velocity: []
effort: []
---
header: 
  seq: 538
  stamp: 
    secs: 1736862981
    nsecs: 347001269
  frame_id: ''
name: 
  - arm_joint_1
  - arm_joint_2
  - arm_joint_3
  - arm_joint_4
  - arm_joint_5
  - gripper_finger_joint_l
  - gripper_finger_joint_r
position: [0.7555881999999974, 1.961393300000023, 1.1333803000000098, 1.5351163000000203, 4.383781500000056, 0.009423269999999685, 0.007763150000000194]
velocity: []
effort: []
---
header: 
  seq: 539
  stamp: 
    secs: 1736862981
    nsecs: 357002096
  frame_id: ''
name: 
  - arm_joint_1
  - arm_joint_2
  - arm_joint_3
  - arm_joint_4
  - arm_joint_5
  - gripper_finger_joint_l
  - gripper_finger_joint_r
position: [0.7564519999999973, 1.962138000000023, 1.1419580000000098, 1.5329180000000202, 4.386590000000057, 0.009422199999999685, 0.0077590000000001946]
velocity: []
effort: []
---
header: 
  seq: 540
  stamp: 
    secs: 1736862981
    nsecs: 367022017
  frame_id: ''
name: 
  - arm_joint_1
  - arm_joint_2
  - arm_joint_3
  - arm_joint_4
  - arm_joint_5
  - gripper_finger_joint_l
  - gripper_finger_joint_r
position: [0.7573157999999973, 1.962882700000023, 1.1505357000000098, 1.5307197000000201, 4.389398500000057, 0.009421129999999684, 0.007754850000000195]
velocity: []
effort: []
---
header: 
  seq: 541
  stamp: 
    secs: 1736862981
    nsecs: 377010555
  frame_id: ''
name: 
  - arm_joint_1
  - arm_joint_2
  - arm_joint_3
  - arm_joint_4
  - arm_joint_5
  - gripper_finger_joint_l
  - gripper_finger_joint_r
position: [0.7581795999999973, 1.9636274000000231, 1.1591134000000098, 1.52852140000002, 4.392207000000058, 0.009420059999999683, 0.007750700000000195]
velocity: []
effort: []
---
header: 
  seq: 542
  stamp: 
    secs: 1736862981
    nsecs: 386985561
  frame_id: ''
name: 
  - arm_joint_1
  - arm_joint_2
  - arm_joint_3
  - arm_joint_4
  - arm_joint_5
  - gripper_finger_joint_l
  - gripper_finger_joint_r
position: [0.7590433999999973, 1.9643721000000232, 1.1676911000000099, 1.52632310000002, 4.395015500000058, 0.009418989999999683, 0.007746550000000196]
velocity: []
effort: []
---
header: 
  seq: 543
  stamp: 
    secs: 1736862981
    nsecs: 397042136
  frame_id: ''
name: 
  - arm_joint_1
  - arm_joint_2
  - arm_joint_3
  - arm_joint_4
  - arm_joint_5
  - gripper_finger_joint_l
  - gripper_finger_joint_r
position: [0.7599071999999972, 1.9651168000000232, 1.1762688000000099, 1.5241248000000198, 4.397824000000059, 0.009417919999999682, 0.007742400000000196]
velocity: []
effort: []
---
header: 
  seq: 544
  stamp: 
    secs: 1736862981
    nsecs: 406998562
  frame_id: ''
name: 
  - arm_joint_1
  - arm_joint_2
  - arm_joint_3
  - arm_joint_4
  - arm_joint_5
  - gripper_finger_joint_l
  - gripper_finger_joint_r
position: [0.7607709999999972, 1.9658615000000232, 1.18484650000001, 1.5219265000000197, 4.400632500000059, 0.009416849999999682, 0.007738250000000196]
velocity: []
effort: []
---
header: 
  seq: 545
  stamp: 
    secs: 1736862981
    nsecs: 417041575
  frame_id: ''
name: 
  - arm_joint_1
  - arm_joint_2
  - arm_joint_3
  - arm_joint_4
  - arm_joint_5
  - gripper_finger_joint_l
  - gripper_finger_joint_r
position: [0.7616347999999972, 1.9666062000000233, 1.19342420000001, 1.5197282000000196, 4.4034410000000594, 0.009415779999999681, 0.007734100000000197]
velocity: []
effort: []
---
header: 
  seq: 546
  stamp: 
    secs: 1736862981
    nsecs: 427005862
  frame_id: ''
name: 
  - arm_joint_1
  - arm_joint_2
  - arm_joint_3
  - arm_joint_4
  - arm_joint_5
  - gripper_finger_joint_l
  - gripper_finger_joint_r
position: [0.7624985999999971, 1.9673509000000233, 1.20200190000001, 1.5175299000000195, 4.40624950000006, 0.00941470999999968, 0.007729950000000197]
velocity: []
effort: []
---
header: 
  seq: 547
  stamp: 
    secs: 1736862981
    nsecs: 437052545
  frame_id: ''
name: 
  - arm_joint_1
  - arm_joint_2
  - arm_joint_3
  - arm_joint_4
  - arm_joint_5
  - gripper_finger_joint_l
  - gripper_finger_joint_r
position: [0.7633623999999971, 1.9680956000000234, 1.21057960000001, 1.5153316000000194, 4.40905800000006, 0.00941363999999968, 0.0077258000000001974]
velocity: []
effort: []
---
header: 
  seq: 548
  stamp: 
    secs: 1736862981
    nsecs: 447008092
  frame_id: ''
name: 
  - arm_joint_1
  - arm_joint_2
  - arm_joint_3
  - arm_joint_4
  - arm_joint_5
  - gripper_finger_joint_l
  - gripper_finger_joint_r
position: [0.7642261999999971, 1.9688403000000234, 1.21915730000001, 1.5131333000000193, 4.411866500000061, 0.00941256999999968, 0.007721650000000198]
velocity: []
effort: []
---
header: 
  seq: 549
  stamp: 
    secs: 1736862981
    nsecs: 457055463
  frame_id: ''
name: 
  - arm_joint_1
  - arm_joint_2
  - arm_joint_3
  - arm_joint_4
  - arm_joint_5
  - gripper_finger_joint_l
  - gripper_finger_joint_r
position: [0.765089999999997, 1.9695850000000235, 1.22773500000001, 1.5109350000000192, 4.414675000000061, 0.009411499999999679, 0.007717500000000198]
velocity: []
effort: []
---
header: 
  seq: 550
  stamp: 
    secs: 1736862981
    nsecs: 467035048
  frame_id: ''
name: 
  - arm_joint_1
  - arm_joint_2
  - arm_joint_3
  - arm_joint_4
  - arm_joint_5
  - gripper_finger_joint_l
  - gripper_finger_joint_r
position: [0.765953799999997, 1.9703297000000235, 1.23631270000001, 1.5087367000000191, 4.417483500000062, 0.009410429999999678, 0.0077133500000001985]
velocity: []
effort: []
---
header: 
  seq: 551
  stamp: 
    secs: 1736862981
    nsecs: 477000474
  frame_id: ''
name: 
  - arm_joint_1
  - arm_joint_2
  - arm_joint_3
  - arm_joint_4
  - arm_joint_5
  - gripper_finger_joint_l
  - gripper_finger_joint_r
position: [0.766817599999997, 1.9710744000000235, 1.24489040000001, 1.506538400000019, 4.420292000000062, 0.009409359999999678, 0.007709200000000199]
velocity: []
effort: []
---
header: 
  seq: 552
  stamp: 
    secs: 1736862981
    nsecs: 486998389
  frame_id: ''
name: 
  - arm_joint_1
  - arm_joint_2
  - arm_joint_3
  - arm_joint_4
  - arm_joint_5
  - gripper_finger_joint_l
  - gripper_finger_joint_r
position: [0.767681399999997, 1.9718191000000236, 1.25346810000001, 1.504340100000019, 4.4231005000000625, 0.009408289999999677, 0.007705050000000199]
velocity: []
effort: []
---
header: 
  seq: 553
  stamp: 
    secs: 1736862981
    nsecs: 497061105
  frame_id: ''
name: 
  - arm_joint_1
  - arm_joint_2
  - arm_joint_3
  - arm_joint_4
  - arm_joint_5
  - gripper_finger_joint_l
  - gripper_finger_joint_r
position: [0.7685451999999969, 1.9725638000000236, 1.26204580000001, 1.5021418000000188, 4.425909000000063, 0.009407219999999676, 0.0077009000000002]
velocity: []
effort: []
---
header: 
  seq: 554
  stamp: 
    secs: 1736862981
    nsecs: 507030131
  frame_id: ''
name: 
  - arm_joint_1
  - arm_joint_2
  - arm_joint_3
  - arm_joint_4
  - arm_joint_5
  - gripper_finger_joint_l
  - gripper_finger_joint_r
position: [0.7694089999999969, 1.9733085000000237, 1.2706235000000101, 1.4999435000000187, 4.428717500000063, 0.009406149999999676, 0.0076967500000002]
velocity: []
effort: []
---
header: 
  seq: 555
  stamp: 
    secs: 1736862981
    nsecs: 517060044
  frame_id: ''
name: 
  - arm_joint_1
  - arm_joint_2
  - arm_joint_3
  - arm_joint_4
  - arm_joint_5
  - gripper_finger_joint_l
  - gripper_finger_joint_r
position: [0.7702727999999969, 1.9740532000000237, 1.2792012000000101, 1.4977452000000187, 4.431526000000064, 0.009405079999999675, 0.0076926000000002]
velocity: []
effort: []
---
header: 
  seq: 556
  stamp: 
    secs: 1736862981
    nsecs: 527103050
  frame_id: ''
name: 
  - arm_joint_1
  - arm_joint_2
  - arm_joint_3
  - arm_joint_4
  - arm_joint_5
  - gripper_finger_joint_l
  - gripper_finger_joint_r
position: [0.7711365999999968, 1.9747979000000238, 1.2877789000000102, 1.4955469000000186, 4.434334500000064, 0.009404009999999675, 0.007688450000000201]
velocity: []
effort: []
---
header: 
  seq: 557
  stamp: 
    secs: 1736862981
    nsecs: 537044426
  frame_id: ''
name: 
  - arm_joint_1
  - arm_joint_2
  - arm_joint_3
  - arm_joint_4
  - arm_joint_5
  - gripper_finger_joint_l
  - gripper_finger_joint_r
position: [0.7720003999999968, 1.9755426000000238, 1.2963566000000102, 1.4933486000000185, 4.437143000000065, 0.009402939999999674, 0.007684300000000201]
velocity: []
effort: []
---
header: 
  seq: 558
  stamp: 
    secs: 1736862981
    nsecs: 547104776
  frame_id: ''
name: 
  - arm_joint_1
  - arm_joint_2
  - arm_joint_3
  - arm_joint_4
  - arm_joint_5
  - gripper_finger_joint_l
  - gripper_finger_joint_r
position: [0.7728641999999968, 1.9762873000000238, 1.3049343000000102, 1.4911503000000184, 4.439951500000065, 0.009401869999999674, 0.007680150000000201]
velocity: []
effort: []
---
header: 
  seq: 559
  stamp: 
    secs: 1736862981
    nsecs: 557055015
  frame_id: ''
name: 
  - arm_joint_1
  - arm_joint_2
  - arm_joint_3
  - arm_joint_4
  - arm_joint_5
  - gripper_finger_joint_l
  - gripper_finger_joint_r
position: [0.7737279999999968, 1.9770320000000239, 1.3135120000000102, 1.4889520000000183, 4.4427600000000655, 0.009400799999999673, 0.007676000000000202]
velocity: []
effort: []
---
header: 
  seq: 560
  stamp: 
    secs: 1736862981
    nsecs: 567059462
  frame_id: ''
name: 
  - arm_joint_1
  - arm_joint_2
  - arm_joint_3
  - arm_joint_4
  - arm_joint_5
  - gripper_finger_joint_l
  - gripper_finger_joint_r
position: [0.7745917999999967, 1.977776700000024, 1.3220897000000102, 1.4867537000000182, 4.445568500000066, 0.009399729999999672, 0.007671850000000202]
velocity: []
effort: []
---
header: 
  seq: 561
  stamp: 
    secs: 1736862981
    nsecs: 577056571
  frame_id: ''
name: 
  - arm_joint_1
  - arm_joint_2
  - arm_joint_3
  - arm_joint_4
  - arm_joint_5
  - gripper_finger_joint_l
  - gripper_finger_joint_r
position: [0.7754555999999967, 1.978521400000024, 1.3306674000000103, 1.484555400000018, 4.448377000000066, 0.009398659999999672, 0.0076677000000002025]
velocity: []
effort: []
---
header: 
  seq: 562
  stamp: 
    secs: 1736862981
    nsecs: 587094810
  frame_id: ''
name: 
  - arm_joint_1
  - arm_joint_2
  - arm_joint_3
  - arm_joint_4
  - arm_joint_5
  - gripper_finger_joint_l
  - gripper_finger_joint_r
position: [0.7763193999999967, 1.979266100000024, 1.3392451000000103, 1.482357100000018, 4.451185500000067, 0.009397589999999671, 0.007663550000000203]
velocity: []
effort: []
---
header: 
  seq: 563
  stamp: 
    secs: 1736862981
    nsecs: 597044231
  frame_id: ''
name: 
  - arm_joint_1
  - arm_joint_2
  - arm_joint_3
  - arm_joint_4
  - arm_joint_5
  - gripper_finger_joint_l
  - gripper_finger_joint_r
position: [0.7771831999999966, 1.980010800000024, 1.3478228000000103, 1.4801588000000179, 4.453994000000067, 0.00939651999999967, 0.007659400000000203]
velocity: []
effort: []
---
header: 
  seq: 564
  stamp: 
    secs: 1736862981
    nsecs: 607021761
  frame_id: ''
name: 
  - arm_joint_1
  - arm_joint_2
  - arm_joint_3
  - arm_joint_4
  - arm_joint_5
  - gripper_finger_joint_l
  - gripper_finger_joint_r
position: [0.7780469999999966, 1.980755500000024, 1.3564005000000103, 1.4779605000000178, 4.456802500000068, 0.00939544999999967, 0.0076552500000002036]
velocity: []
effort: []
---
header: 
  seq: 565
  stamp: 
    secs: 1736862981
    nsecs: 617018867
  frame_id: ''
name: 
  - arm_joint_1
  - arm_joint_2
  - arm_joint_3
  - arm_joint_4
  - arm_joint_5
  - gripper_finger_joint_l
  - gripper_finger_joint_r
position: [0.7789107999999966, 1.9815002000000241, 1.3649782000000104, 1.4757622000000177, 4.459611000000068, 0.00939437999999967, 0.007651100000000204]
velocity: []
effort: []
---
header: 
  seq: 566
  stamp: 
    secs: 1736862981
    nsecs: 627051902
  frame_id: ''
name: 
  - arm_joint_1
  - arm_joint_2
  - arm_joint_3
  - arm_joint_4
  - arm_joint_5
  - gripper_finger_joint_l
  - gripper_finger_joint_r
position: [0.7797745999999965, 1.9822449000000242, 1.3735559000000104, 1.4735639000000176, 4.462419500000069, 0.009393309999999669, 0.007646950000000204]
velocity: []
effort: []
---
header: 
  seq: 567
  stamp: 
    secs: 1736862981
    nsecs: 637095520
  frame_id: ''
name: 
  - arm_joint_1
  - arm_joint_2
  - arm_joint_3
  - arm_joint_4
  - arm_joint_5
  - gripper_finger_joint_l
  - gripper_finger_joint_r
position: [0.7806383999999965, 1.9829896000000242, 1.3821336000000104, 1.4713656000000175, 4.465228000000069, 0.009392239999999668, 0.007642800000000205]
velocity: []
effort: []
---
header: 
  seq: 568
  stamp: 
    secs: 1736862981
    nsecs: 647095645
  frame_id: ''
name: 
  - arm_joint_1
  - arm_joint_2
  - arm_joint_3
  - arm_joint_4
  - arm_joint_5
  - gripper_finger_joint_l
  - gripper_finger_joint_r
position: [0.7815021999999965, 1.9837343000000243, 1.3907113000000104, 1.4691673000000174, 4.4680365000000695, 0.009391169999999668, 0.007638650000000205]
velocity: []
effort: []
---
header: 
  seq: 569
  stamp: 
    secs: 1736862981
    nsecs: 657104021
  frame_id: ''
name: 
  - arm_joint_1
  - arm_joint_2
  - arm_joint_3
  - arm_joint_4
  - arm_joint_5
  - gripper_finger_joint_l
  - gripper_finger_joint_r
position: [0.7823659999999965, 1.9844790000000243, 1.3992890000000104, 1.4669690000000173, 4.47084500000007, 0.009390099999999667, 0.007634500000000205]
velocity: []
effort: []
---
header: 
  seq: 570
  stamp: 
    secs: 1736862981
    nsecs: 667027276
  frame_id: ''
name: 
  - arm_joint_1
  - arm_joint_2
  - arm_joint_3
  - arm_joint_4
  - arm_joint_5
  - gripper_finger_joint_l
  - gripper_finger_joint_r
position: [0.7832297999999964, 1.9852237000000243, 1.4078667000000105, 1.4647707000000172, 4.47365350000007, 0.009389029999999667, 0.007630350000000206]
velocity: []
effort: []
---
header: 
  seq: 571
  stamp: 
    secs: 1736862981
    nsecs: 677022585
  frame_id: ''
name: 
  - arm_joint_1
  - arm_joint_2
  - arm_joint_3
  - arm_joint_4
  - arm_joint_5
  - gripper_finger_joint_l
  - gripper_finger_joint_r
position: [0.7840935999999964, 1.9859684000000244, 1.4164444000000105, 1.462572400000017, 4.476462000000071, 0.009387959999999666, 0.007626200000000206]
velocity: []
effort: []
---
header: 
  seq: 572
  stamp: 
    secs: 1736862981
    nsecs: 687054673
  frame_id: ''
name: 
  - arm_joint_1
  - arm_joint_2
  - arm_joint_3
  - arm_joint_4
  - arm_joint_5
  - gripper_finger_joint_l
  - gripper_finger_joint_r
position: [0.7849573999999964, 1.9867131000000244, 1.4250221000000105, 1.460374100000017, 4.479270500000071, 0.009386889999999665, 0.0076220500000002064]
velocity: []
effort: []
---
header: 
  seq: 573
  stamp: 
    secs: 1736862981
    nsecs: 697050812
  frame_id: ''
name: 
  - arm_joint_1
  - arm_joint_2
  - arm_joint_3
  - arm_joint_4
  - arm_joint_5
  - gripper_finger_joint_l
  - gripper_finger_joint_r
position: [0.7858211999999963, 1.9874578000000245, 1.4335998000000105, 1.458175800000017, 4.482079000000072, 0.009385819999999665, 0.007617900000000207]
velocity: []
effort: []
---
header: 
  seq: 574
  stamp: 
    secs: 1736862981
    nsecs: 707001433
  frame_id: ''
name: 
  - arm_joint_1
  - arm_joint_2
  - arm_joint_3
  - arm_joint_4
  - arm_joint_5
  - gripper_finger_joint_l
  - gripper_finger_joint_r
position: [0.7866849999999963, 1.9882025000000245, 1.4421775000000105, 1.4559775000000168, 4.484887500000072, 0.009384749999999664, 0.007613750000000207]
velocity: []
effort: []
---
header: 
  seq: 575
  stamp: 
    secs: 1736862981
    nsecs: 717011051
  frame_id: ''
name: 
  - arm_joint_1
  - arm_joint_2
  - arm_joint_3
  - arm_joint_4
  - arm_joint_5
  - gripper_finger_joint_l
  - gripper_finger_joint_r
position: [0.7875487999999963, 1.9889472000000246, 1.4507552000000106, 1.4537792000000167, 4.4876960000000725, 0.009383679999999664, 0.0076096000000002075]
velocity: []
effort: []
---
header: 
  seq: 576
  stamp: 
    secs: 1736862981
    nsecs: 727051938
  frame_id: ''
name: 
  - arm_joint_1
  - arm_joint_2
  - arm_joint_3
  - arm_joint_4
  - arm_joint_5
  - gripper_finger_joint_l
  - gripper_finger_joint_r
position: [0.7884125999999962, 1.9896919000000246, 1.4593329000000106, 1.4515809000000166, 4.490504500000073, 0.009382609999999663, 0.007605450000000208]
velocity: []
effort: []
---
header: 
  seq: 577
  stamp: 
    secs: 1736862981
    nsecs: 737082133
  frame_id: ''
name: 
  - arm_joint_1
  - arm_joint_2
  - arm_joint_3
  - arm_joint_4
  - arm_joint_5
  - gripper_finger_joint_l
  - gripper_finger_joint_r
position: [0.7892763999999962, 1.9904366000000246, 1.4679106000000106, 1.4493826000000165, 4.493313000000073, 0.009381539999999662, 0.007601300000000208]
velocity: []
effort: []
---
header: 
  seq: 578
  stamp: 
    secs: 1736862981
    nsecs: 747094155
  frame_id: ''
name: 
  - arm_joint_1
  - arm_joint_2
  - arm_joint_3
  - arm_joint_4
  - arm_joint_5
  - gripper_finger_joint_l
  - gripper_finger_joint_r
position: [0.7901401999999962, 1.9911813000000247, 1.4764883000000106, 1.4471843000000164, 4.496121500000074, 0.009380469999999662, 0.007597150000000209]
velocity: []
effort: []
---
header: 
  seq: 579
  stamp: 
    secs: 1736862981
    nsecs: 756999651
  frame_id: ''
name: 
  - arm_joint_1
  - arm_joint_2
  - arm_joint_3
  - arm_joint_4
  - arm_joint_5
  - gripper_finger_joint_l
  - gripper_finger_joint_r
position: [0.7910039999999962, 1.9919260000000247, 1.4850660000000107, 1.4449860000000163, 4.498930000000074, 0.009379399999999661, 0.007593000000000209]
velocity: []
effort: []
---
header: 
  seq: 580
  stamp: 
    secs: 1736862981
    nsecs: 767106666
  frame_id: ''
name: 
  - arm_joint_1
  - arm_joint_2
  - arm_joint_3
  - arm_joint_4
  - arm_joint_5
  - gripper_finger_joint_l
  - gripper_finger_joint_r
position: [0.7918677999999961, 1.9926707000000248, 1.4936437000000107, 1.4427877000000162, 4.501738500000075, 0.00937832999999966, 0.007588850000000209]
velocity: []
effort: []
---
header: 
  seq: 581
  stamp: 
    secs: 1736862981
    nsecs: 777063689
  frame_id: ''
name: 
  - arm_joint_1
  - arm_joint_2
  - arm_joint_3
  - arm_joint_4
  - arm_joint_5
  - gripper_finger_joint_l
  - gripper_finger_joint_r
position: [0.7927315999999961, 1.9934154000000248, 1.5022214000000107, 1.4405894000000161, 4.504547000000075, 0.00937725999999966, 0.00758470000000021]
velocity: []
effort: []
---
header: 
  seq: 582
  stamp: 
    secs: 1736862981
    nsecs: 787050783
  frame_id: ''
name: 
  - arm_joint_1
  - arm_joint_2
  - arm_joint_3
  - arm_joint_4
  - arm_joint_5
  - gripper_finger_joint_l
  - gripper_finger_joint_r
position: [0.7935953999999961, 1.9941601000000249, 1.5107991000000107, 1.438391100000016, 4.507355500000076, 0.00937618999999966, 0.00758055000000021]
velocity: []
effort: []
---
header: 
  seq: 583
  stamp: 
    secs: 1736862981
    nsecs: 797057477
  frame_id: ''
name: 
  - arm_joint_1
  - arm_joint_2
  - arm_joint_3
  - arm_joint_4
  - arm_joint_5
  - gripper_finger_joint_l
  - gripper_finger_joint_r
position: [0.794459199999996, 1.994904800000025, 1.5193768000000107, 1.436192800000016, 4.510164000000076, 0.009375119999999659, 0.00757640000000021]
velocity: []
effort: []
---
header: 
  seq: 584
  stamp: 
    secs: 1736862981
    nsecs: 807014486
  frame_id: ''
name: 
  - arm_joint_1
  - arm_joint_2
  - arm_joint_3
  - arm_joint_4
  - arm_joint_5
  - gripper_finger_joint_l
  - gripper_finger_joint_r
position: [0.795322999999996, 1.995649500000025, 1.5279545000000108, 1.4339945000000158, 4.512972500000076, 0.009374049999999658, 0.007572250000000211]
velocity: []
effort: []
---
header: 
  seq: 585
  stamp: 
    secs: 1736862981
    nsecs: 817056195
  frame_id: ''
name: 
  - arm_joint_1
  - arm_joint_2
  - arm_joint_3
  - arm_joint_4
  - arm_joint_5
  - gripper_finger_joint_l
  - gripper_finger_joint_r
position: [0.796186799999996, 1.996394200000025, 1.5365322000000108, 1.4317962000000157, 4.515781000000077, 0.009372979999999658, 0.007568100000000211]
velocity: []
effort: []
---
header: 
  seq: 586
  stamp: 
    secs: 1736862981
    nsecs: 826997734
  frame_id: ''
name: 
  - arm_joint_1
  - arm_joint_2
  - arm_joint_3
  - arm_joint_4
  - arm_joint_5
  - gripper_finger_joint_l
  - gripper_finger_joint_r
position: [0.797050599999996, 1.997138900000025, 1.5451099000000108, 1.4295979000000156, 4.518589500000077, 0.009371909999999657, 0.0075639500000002115]
velocity: []
effort: []
---
header: 
  seq: 587
  stamp: 
    secs: 1736862981
    nsecs: 836971617
  frame_id: ''
name: 
  - arm_joint_1
  - arm_joint_2
  - arm_joint_3
  - arm_joint_4
  - arm_joint_5
  - gripper_finger_joint_l
  - gripper_finger_joint_r
position: [0.7979143999999959, 1.997883600000025, 1.5536876000000108, 1.4273996000000155, 4.521398000000078, 0.009370839999999657, 0.007559800000000212]
velocity: []
effort: []
---
header: 
  seq: 588
  stamp: 
    secs: 1736862981
    nsecs: 847012939
  frame_id: ''
name: 
  - arm_joint_1
  - arm_joint_2
  - arm_joint_3
  - arm_joint_4
  - arm_joint_5
  - gripper_finger_joint_l
  - gripper_finger_joint_r
position: [0.7987781999999959, 1.9986283000000251, 1.5622653000000108, 1.4252013000000154, 4.524206500000078, 0.009369769999999656, 0.007555650000000212]
velocity: []
effort: []
---
header: 
  seq: 589
  stamp: 
    secs: 1736862981
    nsecs: 857011420
  frame_id: ''
name: 
  - arm_joint_1
  - arm_joint_2
  - arm_joint_3
  - arm_joint_4
  - arm_joint_5
  - gripper_finger_joint_l
  - gripper_finger_joint_r
position: [0.7996419999999959, 1.9993730000000252, 1.5708430000000109, 1.4230030000000153, 4.527015000000079, 0.009368699999999655, 0.0075515000000002126]
velocity: []
effort: []
---
header: 
  seq: 590
  stamp: 
    secs: 1736862981
    nsecs: 867023837
  frame_id: ''
name: 
  - arm_joint_1
  - arm_joint_2
  - arm_joint_3
  - arm_joint_4
  - arm_joint_5
  - gripper_finger_joint_l
  - gripper_finger_joint_r
position: [0.8005057999999958, 2.000117700000025, 1.579420700000011, 1.4208047000000152, 4.529823500000079, 0.009367629999999655, 0.007547350000000213]
velocity: []
effort: []
---
header: 
  seq: 591
  stamp: 
    secs: 1736862981
    nsecs: 877035963
  frame_id: ''
name: 
  - arm_joint_1
  - arm_joint_2
  - arm_joint_3
  - arm_joint_4
  - arm_joint_5
  - gripper_finger_joint_l
  - gripper_finger_joint_r
position: [0.8013695999999958, 2.000862400000025, 1.587998400000011, 1.4186064000000151, 4.5326320000000795, 0.009366559999999654, 0.007543200000000213]
velocity: []
effort: []
---
header: 
  seq: 592
  stamp: 
    secs: 1736862981
    nsecs: 887064840
  frame_id: ''
name: 
  - arm_joint_1
  - arm_joint_2
  - arm_joint_3
  - arm_joint_4
  - arm_joint_5
  - gripper_finger_joint_l
  - gripper_finger_joint_r
position: [0.8022333999999958, 2.0016071000000246, 1.596576100000011, 1.416408100000015, 4.53544050000008, 0.009365489999999654, 0.007539050000000214]
velocity: []
effort: []
---
header: 
  seq: 593
  stamp: 
    secs: 1736862981
    nsecs: 897094266
  frame_id: ''
name: 
  - arm_joint_1
  - arm_joint_2
  - arm_joint_3
  - arm_joint_4
  - arm_joint_5
  - gripper_finger_joint_l
  - gripper_finger_joint_r
position: [0.8030971999999957, 2.0023518000000244, 1.605153800000011, 1.414209800000015, 4.53824900000008, 0.009364419999999653, 0.007534900000000214]
velocity: []
effort: []
---
header: 
  seq: 594
  stamp: 
    secs: 1736862981
    nsecs: 907025391
  frame_id: ''
name: 
  - arm_joint_1
  - arm_joint_2
  - arm_joint_3
  - arm_joint_4
  - arm_joint_5
  - gripper_finger_joint_l
  - gripper_finger_joint_r
position: [0.8039609999999957, 2.0030965000000243, 1.613731500000011, 1.4120115000000149, 4.541057500000081, 0.009363349999999653, 0.007530750000000214]
velocity: []
effort: []
---
header: 
  seq: 595
  stamp: 
    secs: 1736862981
    nsecs: 916978708
  frame_id: ''
name: 
  - arm_joint_1
  - arm_joint_2
  - arm_joint_3
  - arm_joint_4
  - arm_joint_5
  - gripper_finger_joint_l
  - gripper_finger_joint_r
position: [0.8048247999999957, 2.003841200000024, 1.622309200000011, 1.4098132000000148, 4.543866000000081, 0.009362279999999652, 0.007526600000000215]
velocity: []
effort: []
---
header: 
  seq: 596
  stamp: 
    secs: 1736862981
    nsecs: 927028087
  frame_id: ''
name: 
  - arm_joint_1
  - arm_joint_2
  - arm_joint_3
  - arm_joint_4
  - arm_joint_5
  - gripper_finger_joint_l
  - gripper_finger_joint_r
position: [0.8056885999999956, 2.004585900000024, 1.630886900000011, 1.4076149000000147, 4.546674500000082, 0.009361209999999651, 0.007522450000000215]
velocity: []
effort: []
---
header: 
  seq: 597
  stamp: 
    secs: 1736862981
    nsecs: 937104011
  frame_id: ''
name: 
  - arm_joint_1
  - arm_joint_2
  - arm_joint_3
  - arm_joint_4
  - arm_joint_5
  - gripper_finger_joint_l
  - gripper_finger_joint_r
position: [0.8065523999999956, 2.0053306000000237, 1.639464600000011, 1.4054166000000146, 4.549483000000082, 0.00936013999999965, 0.0075183000000002154]
velocity: []
effort: []
---
header: 
  seq: 598
  stamp: 
    secs: 1736862981
    nsecs: 947008070
  frame_id: ''
name: 
  - arm_joint_1
  - arm_joint_2
  - arm_joint_3
  - arm_joint_4
  - arm_joint_5
  - gripper_finger_joint_l
  - gripper_finger_joint_r
position: [0.8074161999999956, 2.0060753000000235, 1.648042300000011, 1.4032183000000145, 4.5522915000000825, 0.00935906999999965, 0.007514150000000216]
velocity: []
effort: []
---
header: 
  seq: 599
  stamp: 
    secs: 1736862981
    nsecs: 957142954
  frame_id: ''
name: 
  - arm_joint_1
  - arm_joint_2
  - arm_joint_3
  - arm_joint_4
  - arm_joint_5
  - gripper_finger_joint_l
  - gripper_finger_joint_r
position: [0.8082799999999956, 2.0068200000000234, 1.656620000000011, 1.4010200000000144, 4.555100000000083, 0.00935799999999965, 0.007510000000000216]
velocity: []
effort: []
---
header: 
  seq: 600
  stamp: 
    secs: 1736862981
    nsecs: 967099194
  frame_id: ''
name: 
  - arm_joint_1
  - arm_joint_2
  - arm_joint_3
  - arm_joint_4
  - arm_joint_5
  - gripper_finger_joint_l
  - gripper_finger_joint_r
position: [0.8091437999999955, 2.007564700000023, 1.665197700000011, 1.3988217000000143, 4.557908500000083, 0.009356929999999649, 0.0075058500000002165]
velocity: []
effort: []
---
header: 
  seq: 601
  stamp: 
    secs: 1736862981
    nsecs: 977043219
  frame_id: ''
name: 
  - arm_joint_1
  - arm_joint_2
  - arm_joint_3
  - arm_joint_4
  - arm_joint_5
  - gripper_finger_joint_l
  - gripper_finger_joint_r
position: [0.8100075999999955, 2.008309400000023, 1.6737754000000111, 1.3966234000000142, 4.560717000000084, 0.009355859999999648, 0.007501700000000217]
velocity: []
effort: []
---
header: 
  seq: 602
  stamp: 
    secs: 1736862981
    nsecs: 987018453
  frame_id: ''
name: 
  - arm_joint_1
  - arm_joint_2
  - arm_joint_3
  - arm_joint_4
  - arm_joint_5
  - gripper_finger_joint_l
  - gripper_finger_joint_r
position: [0.8108713999999955, 2.009054100000023, 1.6823531000000111, 1.394425100000014, 4.563525500000084, 0.009354789999999648, 0.007497550000000217]
velocity: []
effort: []
---
header: 
  seq: 603
  stamp: 
    secs: 1736862981
    nsecs: 997097376
  frame_id: ''
name: 
  - arm_joint_1
  - arm_joint_2
  - arm_joint_3
  - arm_joint_4
  - arm_joint_5
  - gripper_finger_joint_l
  - gripper_finger_joint_r
position: [0.8117351999999954, 2.0097988000000226, 1.6909308000000112, 1.392226800000014, 4.566334000000085, 0.009353719999999647, 0.007493400000000218]
velocity: []
effort: []
---
header: 
  seq: 604
  stamp: 
    secs: 1736862982
    nsecs:   6999719
  frame_id: ''
name: 
  - arm_joint_1
  - arm_joint_2
  - arm_joint_3
  - arm_joint_4
  - arm_joint_5
  - gripper_finger_joint_l
  - gripper_finger_joint_r
position: [0.8125989999999954, 2.0105435000000225, 1.6995085000000112, 1.3900285000000139, 4.569142500000085, 0.009352649999999647, 0.007489250000000218]
velocity: []
effort: []
---
header: 
  seq: 605
  stamp: 
    secs: 1736862982
    nsecs:  17041628
  frame_id: ''
name: 
  - arm_joint_1
  - arm_joint_2
  - arm_joint_3
  - arm_joint_4
  - arm_joint_5
  - gripper_finger_joint_l
  - gripper_finger_joint_r
position: [0.8134627999999954, 2.0112882000000223, 1.7080862000000112, 1.3878302000000138, 4.571951000000086, 0.009351579999999646, 0.007485100000000218]
velocity: []
effort: []
---
header: 
  seq: 606
  stamp: 
    secs: 1736862982
    nsecs:  27039308
  frame_id: ''
name: 
  - arm_joint_1
  - arm_joint_2
  - arm_joint_3
  - arm_joint_4
  - arm_joint_5
  - gripper_finger_joint_l
  - gripper_finger_joint_r
position: [0.8143265999999953, 2.012032900000022, 1.7166639000000112, 1.3856319000000137, 4.574759500000086, 0.009350509999999645, 0.007480950000000219]
velocity: []
effort: []
---
header: 
  seq: 607
  stamp: 
    secs: 1736862982
    nsecs:  37093596
  frame_id: ''
name: 
  - arm_joint_1
  - arm_joint_2
  - arm_joint_3
  - arm_joint_4
  - arm_joint_5
  - gripper_finger_joint_l
  - gripper_finger_joint_r
position: [0.8151903999999953, 2.012777600000022, 1.7252416000000113, 1.3834336000000136, 4.5775680000000865, 0.009349439999999645, 0.007476800000000219]
velocity: []
effort: []
---
header: 
  seq: 608
  stamp: 
    secs: 1736862982
    nsecs:  47105293
  frame_id: ''
name: 
  - arm_joint_1
  - arm_joint_2
  - arm_joint_3
  - arm_joint_4
  - arm_joint_5
  - gripper_finger_joint_l
  - gripper_finger_joint_r
position: [0.8160541999999953, 2.0135223000000217, 1.7338193000000113, 1.3812353000000135, 4.580376500000087, 0.009348369999999644, 0.007472650000000219]
velocity: []
effort: []
---
header: 
  seq: 609
  stamp: 
    secs: 1736862982
    nsecs:  57014998
  frame_id: ''
name: 
  - arm_joint_1
  - arm_joint_2
  - arm_joint_3
  - arm_joint_4
  - arm_joint_5
  - gripper_finger_joint_l
  - gripper_finger_joint_r
position: [0.8169179999999953, 2.0142670000000216, 1.7423970000000113, 1.3790370000000134, 4.583185000000087, 0.009347299999999644, 0.00746850000000022]
velocity: []
effort: []
---
header: 
  seq: 610
  stamp: 
    secs: 1736862982
    nsecs:  67097662
  frame_id: ''
name: 
  - arm_joint_1
  - arm_joint_2
  - arm_joint_3
  - arm_joint_4
  - arm_joint_5
  - gripper_finger_joint_l
  - gripper_finger_joint_r
position: [0.8177817999999952, 2.0150117000000214, 1.7509747000000113, 1.3768387000000133, 4.585993500000088, 0.009346229999999643, 0.00746435000000022]
velocity: []
effort: []
---
header: 
  seq: 611
  stamp: 
    secs: 1736862982
    nsecs:  77072011
  frame_id: ''
name: 
  - arm_joint_1
  - arm_joint_2
  - arm_joint_3
  - arm_joint_4
  - arm_joint_5
  - gripper_finger_joint_l
  - gripper_finger_joint_r
position: [0.8186455999999952, 2.015756400000021, 1.7595524000000113, 1.3746404000000132, 4.588802000000088, 0.009345159999999643, 0.0074602000000002205]
velocity: []
effort: []
---
header: 
  seq: 612
  stamp: 
    secs: 1736862982
    nsecs:  87087037
  frame_id: ''
name: 
  - arm_joint_1
  - arm_joint_2
  - arm_joint_3
  - arm_joint_4
  - arm_joint_5
  - gripper_finger_joint_l
  - gripper_finger_joint_r
position: [0.8195093999999952, 2.016501100000021, 1.7681301000000114, 1.372442100000013, 4.591610500000089, 0.009344089999999642, 0.007456050000000221]
velocity: []
effort: []
---
header: 
  seq: 613
  stamp: 
    secs: 1736862982
    nsecs:  97094072
  frame_id: ''
name: 
  - arm_joint_1
  - arm_joint_2
  - arm_joint_3
  - arm_joint_4
  - arm_joint_5
  - gripper_finger_joint_l
  - gripper_finger_joint_r
position: [0.8203731999999951, 2.017245800000021, 1.7767078000000114, 1.370243800000013, 4.594419000000089, 0.009343019999999641, 0.007451900000000221]
velocity: []
effort: []
---
header: 
  seq: 614
  stamp: 
    secs: 1736862982
    nsecs: 107056766
  frame_id: ''
name: 
  - arm_joint_1
  - arm_joint_2
  - arm_joint_3
  - arm_joint_4
  - arm_joint_5
  - gripper_finger_joint_l
  - gripper_finger_joint_r
position: [0.8212369999999951, 2.0179905000000207, 1.7852855000000114, 1.368045500000013, 4.5972275000000895, 0.00934194999999964, 0.0074477500000002216]
velocity: []
effort: []
---
header: 
  seq: 615
  stamp: 
    secs: 1736862982
    nsecs: 117094300
  frame_id: ''
name: 
  - arm_joint_1
  - arm_joint_2
  - arm_joint_3
  - arm_joint_4
  - arm_joint_5
  - gripper_finger_joint_l
  - gripper_finger_joint_r
position: [0.8221007999999951, 2.0187352000000205, 1.7938632000000114, 1.3658472000000128, 4.60003600000009, 0.00934087999999964, 0.007443600000000222]
velocity: []
effort: []
---
header: 
  seq: 616
  stamp: 
    secs: 1736862982
    nsecs: 127037495
  frame_id: ''
name: 
  - arm_joint_1
  - arm_joint_2
  - arm_joint_3
  - arm_joint_4
  - arm_joint_5
  - gripper_finger_joint_l
  - gripper_finger_joint_r
position: [0.822964599999995, 2.0194799000000203, 1.8024409000000114, 1.3636489000000127, 4.60284450000009, 0.00933980999999964, 0.007439450000000222]
velocity: []
effort: []
---
header: 
  seq: 617
  stamp: 
    secs: 1736862982
    nsecs: 137096022
  frame_id: ''
name: 
  - arm_joint_1
  - arm_joint_2
  - arm_joint_3
  - arm_joint_4
  - arm_joint_5
  - gripper_finger_joint_l
  - gripper_finger_joint_r
position: [0.823828399999995, 2.02022460000002, 1.8110186000000115, 1.3614506000000126, 4.605653000000091, 0.009338739999999639, 0.007435300000000223]
velocity: []
effort: []
---
header: 
  seq: 618
  stamp: 
    secs: 1736862982
    nsecs: 147015761
  frame_id: ''
name: 
  - arm_joint_1
  - arm_joint_2
  - arm_joint_3
  - arm_joint_4
  - arm_joint_5
  - gripper_finger_joint_l
  - gripper_finger_joint_r
position: [0.824692199999995, 2.02096930000002, 1.8195963000000115, 1.3592523000000125, 4.608461500000091, 0.009337669999999638, 0.007431150000000223]
velocity: []
effort: []
---
header: 
  seq: 619
  stamp: 
    secs: 1736862982
    nsecs: 157000187
  frame_id: ''
name: 
  - arm_joint_1
  - arm_joint_2
  - arm_joint_3
  - arm_joint_4
  - arm_joint_5
  - gripper_finger_joint_l
  - gripper_finger_joint_r
position: [0.825555999999995, 2.0217140000000198, 1.8281740000000115, 1.3570540000000124, 4.611270000000092, 0.009336599999999638, 0.007427000000000223]
velocity: []
effort: []
---
header: 
  seq: 620
  stamp: 
    secs: 1736862982
    nsecs: 167021854
  frame_id: ''
name: 
  - arm_joint_1
  - arm_joint_2
  - arm_joint_3
  - arm_joint_4
  - arm_joint_5
  - gripper_finger_joint_l
  - gripper_finger_joint_r
position: [0.8264197999999949, 2.0224587000000196, 1.8367517000000115, 1.3548557000000123, 4.614078500000092, 0.009335529999999637, 0.007422850000000224]
velocity: []
effort: []
---
header: 
  seq: 621
  stamp: 
    secs: 1736862982
    nsecs: 177012239
  frame_id: ''
name: 
  - arm_joint_1
  - arm_joint_2
  - arm_joint_3
  - arm_joint_4
  - arm_joint_5
  - gripper_finger_joint_l
  - gripper_finger_joint_r
position: [0.8272835999999949, 2.0232034000000194, 1.8453294000000116, 1.3526574000000122, 4.6168870000000926, 0.009334459999999637, 0.007418700000000224]
velocity: []
effort: []
---
header: 
  seq: 622
  stamp: 
    secs: 1736862982
    nsecs: 187091615
  frame_id: ''
name: 
  - arm_joint_1
  - arm_joint_2
  - arm_joint_3
  - arm_joint_4
  - arm_joint_5
  - gripper_finger_joint_l
  - gripper_finger_joint_r
position: [0.8281473999999949, 2.0239481000000192, 1.8539071000000116, 1.3504591000000121, 4.619695500000093, 0.009333389999999636, 0.007414550000000224]
velocity: []
effort: []
---
header: 
  seq: 623
  stamp: 
    secs: 1736862982
    nsecs: 197057912
  frame_id: ''
name: 
  - arm_joint_1
  - arm_joint_2
  - arm_joint_3
  - arm_joint_4
  - arm_joint_5
  - gripper_finger_joint_l
  - gripper_finger_joint_r
position: [0.8290111999999948, 2.024692800000019, 1.8624848000000116, 1.348260800000012, 4.622504000000093, 0.009332319999999636, 0.007410400000000225]
velocity: []
effort: []
---
header: 
  seq: 624
  stamp: 
    secs: 1736862982
    nsecs: 207068813
  frame_id: ''
name: 
  - arm_joint_1
  - arm_joint_2
  - arm_joint_3
  - arm_joint_4
  - arm_joint_5
  - gripper_finger_joint_l
  - gripper_finger_joint_r
position: [0.8298749999999948, 2.025437500000019, 1.8710625000000116, 1.346062500000012, 4.625312500000094, 0.009331249999999635, 0.007406250000000225]
velocity: []
effort: []
---
header: 
  seq: 625
  stamp: 
    secs: 1736862982
    nsecs: 216993154
  frame_id: ''
name: 
  - arm_joint_1
  - arm_joint_2
  - arm_joint_3
  - arm_joint_4
  - arm_joint_5
  - gripper_finger_joint_l
  - gripper_finger_joint_r
position: [0.8307387999999948, 2.0261822000000187, 1.8796402000000116, 1.3438642000000118, 4.628121000000094, 0.009330179999999634, 0.0074021000000002255]
velocity: []
effort: []
---
header: 
  seq: 626
  stamp: 
    secs: 1736862982
    nsecs: 227036714
  frame_id: ''
name: 
  - arm_joint_1
  - arm_joint_2
  - arm_joint_3
  - arm_joint_4
  - arm_joint_5
  - gripper_finger_joint_l
  - gripper_finger_joint_r
position: [0.8316025999999948, 2.0269269000000185, 1.8882179000000117, 1.3416659000000117, 4.630929500000095, 0.009329109999999634, 0.007397950000000226]
velocity: []
effort: []
---
header: 
  seq: 627
  stamp: 
    secs: 1736862982
    nsecs: 237005534
  frame_id: ''
name: 
  - arm_joint_1
  - arm_joint_2
  - arm_joint_3
  - arm_joint_4
  - arm_joint_5
  - gripper_finger_joint_l
  - gripper_finger_joint_r
position: [0.8324663999999947, 2.0276716000000183, 1.8967956000000117, 1.3394676000000116, 4.633738000000095, 0.009328039999999633, 0.007393800000000226]
velocity: []
effort: []
---
header: 
  seq: 628
  stamp: 
    secs: 1736862982
    nsecs: 246976791
  frame_id: ''
name: 
  - arm_joint_1
  - arm_joint_2
  - arm_joint_3
  - arm_joint_4
  - arm_joint_5
  - gripper_finger_joint_l
  - gripper_finger_joint_r
position: [0.8333301999999947, 2.028416300000018, 1.9053733000000117, 1.3372693000000115, 4.636546500000096, 0.009326969999999633, 0.007389650000000227]
velocity: []
effort: []
---
header: 
  seq: 629
  stamp: 
    secs: 1736862982
    nsecs: 257159882
  frame_id: ''
name: 
  - arm_joint_1
  - arm_joint_2
  - arm_joint_3
  - arm_joint_4
  - arm_joint_5
  - gripper_finger_joint_l
  - gripper_finger_joint_r
position: [0.8341939999999947, 2.029161000000018, 1.9139510000000117, 1.3350710000000114, 4.639355000000096, 0.009325899999999632, 0.007385500000000227]
velocity: []
effort: []
---
header: 
  seq: 630
  stamp: 
    secs: 1736862982
    nsecs: 267011773
  frame_id: ''
name: 
  - arm_joint_1
  - arm_joint_2
  - arm_joint_3
  - arm_joint_4
  - arm_joint_5
  - gripper_finger_joint_l
  - gripper_finger_joint_r
